"id","temp","latitude","longitude","elevation","state","name","gsn_flag","wmo_id","element","first_year","last_year"
"USC00280734",5.68086967213628,40.8292,-75.0833,80.2,"NJ","BELVIDERE BRG","","HCN","TMAX",1982,2023
"USC00280907",5.78988429752066,40.8917,-74.3964,85.3,"NJ","BOONTON 1 SE","","HCN","TMAX",1893,2023
"USC00281335",6.87023924428519,40.7436,-74.3539,54.9,"NJ","CANOE BROOK","","","TMAX",1931,2023
"USC00281582",5.1002678779525,41.03,-74.4247,237.1,"NJ","CHARLOTTEBURG RSVR","","HCN","TMAX",1893,2023
"USC00283029",6.32005900818253,40.5742,-74.8817,80.8,"NJ","FLEMINGTON 5 NNW","","HCN","TMAX",1898,2023
"USC00286055",7.6073262430565,40.4728,-74.4225,33.8,"NJ","NEW BRUNSWICK 3 SE","","HCN","TMAX",1968,2023
"USC00286979",6.14101183577728,40.6956,-75.2,70.7,"NJ","PHILLIPSBURG-EASTON BRG","","","TMAX",2011,2023
"USC00288644",4.61076928535945,41.2186,-74.6211,190.8,"NJ","SUSSEX 1 NW","","","TMAX",1893,2023
"USC00289363",6.30998297926488,40.4519,-74.7792,86.3,"NJ","WERTSVILLE 4 NE","","","TMAX",1995,2023
"USC00300023",3.14821018062397,42.1014,-77.2344,304.5,"NY","ADDISON","","HCN","TMAX",1893,2020
"USC00300085",2.74742582305921,42.2797,-77.7664,586.4,"NY","ALFRED","","HCN","TMAX",1893,2023
"USC00300093",2.32049306133509,42.1003,-78.7497,457.2,"NY","ALLEGANY SP","","HCN","TMAX",1924,2023
"USC00300183",3.17704376100799,42.3108,-78.0231,449.6,"NY","ANGELICA","","HCN","TMAX",1893,2023
"USC00301102",2.07454572560632,41.8275,-74.9506,372.2,"NY","CALLICOON CTR","","","TMAX",2011,2023
"USC00301787",1.63113219753421,42.1342,-77.0692,349.6,"NY","CORNING","","","TMAX",1992,2023
"USC00302036",2.65886764401197,42.2533,-74.905,445,"NY","DELHI 2 SE","","","TMAX",1924,2023
"USC00302169",3.26202821758896,42.0772,-74.9828,365.8,"NY","DOWNSVILLE DAM","","","TMAX",1959,2023
"USC00302197",4.08396597868249,42.4717,-79.3336,192.3,"NY","DUNKIRK","","","PRCP",2009,2023
"USC00302454",2.77594653690406,42.3328,-75.2297,352,"NY","E SIDNEY","","","TMAX",2010,2023
"USC00302610",3.22021627602403,42.0997,-76.8358,288.6,"NY","ELMIRA","","HCN","TMAX",1894,2023
"USC00303025",2.0993998103238,42.3294,-78.4636,481,"NY","FRANKLINVILLE","","","TMAX",1896,2023
"USC00303983",1.82105702066999,42.3489,-77.7044,403.9,"NY","HORNELL ALMOND DAM","","","TMAX",2011,2023
"USC00304174",2.23928194011652,42.4492,-76.4492,292.6,"NY","ITHACA CORNELL UNIV","","HCN","TMAX",1893,2023
"USC00304207",3.15553786749763,42.11,-79.1592,381,"NY","JAMESTOWN 4 ENE","","","TMAX",1960,2023
"USC00304575",3.91203199194198,42.4486,-74.4653,338.3,"NY","LANSING MANOR","","","TMAX",1985,2023
"USC00304731",1.87189524257426,41.8017,-74.74,481.6,"NY","LIBERTY 1 NE","","","TMAX",1898,2023
"USC00304808",1.85631964433247,42.2472,-78.8125,495.3,"NY","LITTLE VALLEY","","","TMAX",1941,2023
"USC00305113",1.79364660012946,42.4694,-75.0106,373.4,"NY","EMMONS","","HCN","TMAX",1983,2022
"USC00305233",1.71612214076797,42.4422,-76.7586,460.2,"NY","MECKLENBURG 4SW","","","TMAX",2003,2023
"USC00306196",2.88628912071535,42.0736,-78.4517,432.8,"NY","OLEAN","","","TMAX",1927,2023
"USC00306525",2.1971955019645,42.4647,-79.0031,368.8,"NY","PERRYSBURG","","","TMAX",2011,2023
"USC00306747",4.10766562796369,42.3717,-79.4867,246.3,"NY","PORTLAND 1 SW","","","TMAX",2011,2023
"USC00306774",4.18897032922368,41.3892,-74.6906,176.8,"NY","PORT JERVIS","","HCN","TMAX",1893,2023
"USC00308932",2.4046709057285,42.1847,-75.1456,451.1,"NY","WALTON 2","","","TMAX",1997,2023
"USC00309047",4.92007571297351,42.0019,-76.525,243.8,"NY","WAVERLY","","","TMAX",1893,2023
"USC00309072",2.22653095786479,42.1172,-77.9475,460.2,"NY","WELLSVILLE","","","TMAX",1980,2023
"USC00309442",2.88323820168902,42.3419,-75.9653,317,"NY","WHITNEY PT DAM","","","TMAX",2011,2023
"USC00360022",5.58342305562463,40.5361,-79.8153,228,"PA","ACMETONIA LOCK 3","","","TMAX",1978,2023
"USC00360132",5.56937610079935,40.4189,-78.4197,359.7,"PA","ALTOONA 7 SW","","","TMAX",2001,2023
"USC00360140",4.25848055818995,40.495,-78.4667,402.3,"PA","ALTOONA 3 W","","","TMAX",1967,2023
"USC00360457",5.08458097230638,40.8208,-76.4983,309.4,"PA","BEAR GAP","","","TMAX",1948,2023
"USC00360785",5.96612803874428,40.3803,-76.0275,106.7,"PA","BLUE MARSH LAKE","","","TMAX",1978,2023
"USC00360861",6.27779698759845,40.3917,-79.8594,222.5,"PA","BRADDOCK LOCK 2","","","TMAX",1977,2023
"USC00360868",2.33134941064896,41.8981,-78.7144,506,"PA","BRADFORD 4SW RSCH 5","","","TMAX",1941,2023
"USC00361080",6.70802509335318,40.5,-75.2042,118,"PA","BUCKSVILLE","","","TMAX",1978,2023
"USC00361212",3.35723003001499,41.6517,-76.8464,347.5,"PA","CANTON","","","TMAX",1976,2023
"USC00361362",2.41639941892848,41.93,-79.2969,454.2,"PA","CHANDLERS VALLEY 1SE","","","TMAX",2004,2023
"USC00361526",1.48263446687441,41.6997,-78.4978,634,"PA","CLERMONT 1 NW","","","TMAX",2000,2023
"USC00361802",2.89078840119079,41.7583,-78.0408,502.9,"PA","COUDERSPORT 1 SW","","","TMAX",2000,2023
"USC00361810",1.85709321230186,41.7392,-77.9711,655.3,"PA","COUDERSPORT 7SE","","","TMAX",2005,2023
"USC00361838",3.0481262701531,41.9906,-77.1567,350.5,"PA","COWANESQUE DAM","","","TMAX",1993,2023
"USC00362323",3.77493126787319,41.5217,-76.4042,466.3,"PA","DUSHORE","","","TMAX",2003,2023
"USC00362470",3.58004199972903,40.4681,-78.7308,591.3,"PA","EBENSBURG SEWAGE PLT","","","TMAX",1964,2023
"USC00362574",6.32091001007541,40.5044,-80.0889,218.5,"PA","EMSWORTH L/D OHIO RVR","","","TMAX",1991,2023
"USC00362942",5.45692876809597,40.715,-79.5133,283.5,"PA","FORD CITY 4 S DAM","","","TMAX",1943,2023
"USC00363018",3.22784311068961,41.1183,-75.7278,459.9,"PA","FRANCIS E WALTER DAM","","","TMAX",1963,2023
"USC00363028",3.92107252438979,41.4003,-79.8306,309.4,"PA","FRANKLIN","","HCN","TMAX",1897,2023
"USC00363311",2.16963380451309,41.5606,-78.5994,524.3,"PA","GLEN HAZEL 2 NE DAM","","","TMAX",1955,2023
"USC00363417",3.67158166721505,40.9667,-78.5872,460.2,"PA","GRAMPIAN 1E","","","TMAX",2010,2023
"USC00363632",5.13266325701125,40.5517,-75.9911,112.5,"PA","HAMBURG","","","TMAX",1894,2021
"USC00364214",5.39695179750593,40.5972,-79.1186,335.9,"PA","INDIANA 3 SE","","","TMAX",1946,2023
"USC00364432",2.08342561563833,41.6769,-78.8036,533.4,"PA","KANE 1NNE","","","TMAX",1894,2023
"USC00364815",1.2177523370817,41.4233,-76.4933,599.2,"PA","LAPORTE","","","TMAX",1991,2023
"USC00364934",4.58047485477876,40.8222,-75.6961,138.7,"PA","LEHIGHTON 1SSW","","","TMAX",1970,2023
"USC00364976",4.67466332475274,40.9475,-76.8786,152.4,"PA","LEWISBURG","","","TMAX",1996,2023
"USC00364992",5.95704105134806,40.5864,-77.5692,140.2,"PA","LEWISTOWN","","","TMAX",1938,2023
"USC00365109",4.59835815451315,41.1311,-77.4336,172.5,"PA","LOCK HAVEN SEWAGE PLT","","","TMAX",1973,2023
"USC00365212",5.9527626878985,40.4586,-79.4503,301.8,"PA","LOYALHANNA LAKE","","","TMAX",1989,2023
"USC00365344",3.31587709982203,40.8344,-76.1436,521.2,"PA","MAHANOY CITY 2 N","","","TMAX",2011,2023
"USC00365738",3.3694628463471,41.6725,-75.0642,231.6,"PA","MILANVILLE","","","TMAX",1963,2020
"USC00365790",3.79487422661789,40.8847,-77.475,341.4,"PA","MILLHEIM","","","TMAX",2004,2023
"USC00366111",6.52870410513481,40.4119,-79.7244,262.1,"PA","MURRYSVILLE 2 SW","","","TMAX",2012,2023
"USC00366151",6.06666206512041,40.6142,-79.7192,231.6,"PA","NATRONA LOCK 4","","","TMAX",1977,2023
"USC00366649",1.49335262353146,41.9244,-78.0072,521.2,"PA","OSWAYO 1 ENE","","","TMAX",2006,2021
"USC00366921",3.45641105541255,40.8728,-78.2161,524.3,"PA","PHILIPSBURG 2 S","","","TMAX",1998,2023
"USC00367029",1.18813768208064,41.7394,-75.4464,548.6,"PA","PLEASANT MT 1 W","","HCN","TMAX",1951,2023
"USC00367103",2.67008603170302,41.8156,-78.2872,449.6,"PA","PORT ALLEGANY","","","TMAX",1969,2023
"USC00367167",4.69386712485044,40.6514,-78.555,463.3,"PA","PRINCE GALLITZIN SP","","","TMAX",1982,2023
"USC00367313",5.6112870884704,40.3814,-78.0753,303.3,"PA","RAYSTOWN HQ","","","TMAX",2012,2023
"USC00367409",4.61559951226121,41.33,-77.7381,201.2,"PA","RENOVO","","","TMAX",1896,2023
"USC00367477",4.01793456171251,41.4197,-78.7492,414.5,"PA","RIDGWAY","","HCN","TMAX",1913,2023
"USC00367782",5.59596057444791,40.51,-79.5458,338,"PA","SALINA 3 W","","","TMAX",1953,2023
"USC00367931",5.07217788917491,40.7831,-76.8617,128,"PA","SELINSGROVE 2 S","","HCN","TMAX",1894,2023
"USC00368184",4.7446480558226,41.0561,-80.0594,384,"PA","SLIPPERY ROCK 1 SSW","","","TMAX",1949,2023
"USC00368400",5.72057809465745,40.5711,-75.2781,262.1,"PA","SPRINGTOWN 1 NNE","","","TMAX",1991,2023
"USC00368449",4.42890326514022,40.7933,-77.8672,356.6,"PA","STATE COLLEGE","","HCN","TMAX",1893,2023
"USC00368469",3.69237501693537,41.4039,-78.0183,284.1,"PA","STEVENSON DAM","","","TMAX",1969,2023
"USC00368596",5.3619435035903,41.0147,-75.2072,143.6,"PA","E STROUDSBURG","","HCN","TMAX",1911,2023
"USC00368668",5.23691911665086,40.8533,-76.7892,175.3,"PA","SUNBURY","","","TMAX",1957,2023
"USC00368868",2.95524861129928,41.8975,-77.1419,374.9,"PA","TIOGA HAMMOND DAM","","","TMAX",1973,2023
"USC00368873",4.69804892049003,41.4792,-79.4433,365.8,"PA","TIONESTA 2 SE LAKE","","","TMAX",1921,2023
"USC00368888",3.97043653750621,41.6311,-79.6931,371.9,"PA","TITUSVILLE WTR WKS","","","TMAX",1954,2023
"USC00368905",3.85744849262032,41.7511,-76.4431,231.6,"PA","TOWANDA 1 S","","HCN","TMAX",1894,2023
"USC00369042",3.09338368784717,41.9003,-79.8611,378,"PA","UNION CITY FILTRATION PLT","","","TMAX",2012,2023
"USC00369298",3.44067741498442,41.8467,-79.1494,368.8,"PA","WARREN","","HCN","TMAX",1896,2023
"USC00369408",2.14548570654383,41.7003,-77.3872,554.1,"PA","WELLSBORO 4 SW","","HCN","TMAX",1926,2023
"USC00369735",5.49085625254031,41.2486,-76.9833,160,"PA","WILLIAMSPORT 2","","","TMAX",1999,2023
"USR0000NGAN",4.28152075147902,42.1,-77.1,335.3,"NY","GANG MILLS NEW YORK","","","TMAX",2003,2021
"USR0000PALL",3.34398598503666,41.4864,-79.1025,539.5,"PA","ALLEGHENY PENNSYLVANIA","","","TMAX",1999,2021
"USW00004725",1.6700955155128,42.1997,-75.9847,519.1,"NY","BINGHAMTON","","HCN 72515","TMAX",1951,2023
"USW00004751",2.46431576570474,41.7983,-78.6356,642.2,"PA","BRADFORD RGNL AP","","","TMAX",1957,2023
"USW00004787",3.63876538117511,41.1794,-78.8933,550.5,"PA","DUBOIS RGNL AP","","","TMAX",1962,2023
"USW00004789",5.05490818465308,41.5092,-74.2644,108.2,"NY","MONTGOMERY ORANGE CO AP","","","TMAX",1998,2023
"USW00014737",6.5216000541932,40.6497,-75.4478,117.3,"PA","ALLENTOWN LEHIGH VLY INTL AP","","HCN 72517","TMAX",1948,2023
"USW00014747",3.68776336926859,42.4933,-79.2761,203.9,"NY","DUNKIRK CHAUTAUQUA CO AP","","","TMAX",1945,2023
"USW00014748",4.39175030483674,42.1567,-76.9028,285.3,"NY","ELMIRA CORNING RGNL AP","","","TMAX",1938,2023
"USW00014770",5.74668943910039,40.8192,-76.8658,135.3,"PA","SELINSGROVE PENN VALLEY AP","","","TMAX",1997,2023
"USW00014777",5.02520710663347,41.3336,-75.7228,289.9,"PA","WILKES-BARRE/SCRANTON INTL AP","","72513","TMAX",1949,2023
"USW00014778",5.41101409023168,41.2431,-76.9217,159.7,"PA","WILLIAMSPORT RGNL AP","","HCN 72514","TMAX",1948,2023
"USW00054743",6.9340457593822,40.8764,-74.2828,52.1,"NJ","CALDWELL ESSEX CO AP","","","TMAX",1999,2023
"USW00054757",2.28498469336663,42.1078,-77.9842,637.6,"NY","WELLSVILLE MUNI AP","","","TMAX",2000,2023
"USW00054779",5.66643979592008,41.0092,-74.7364,176.8,"NJ","AEROFLEX-ANDOVER AP","","","TMAX",1998,2023
"USW00054785",7.28744971246222,40.6242,-74.6689,30.2,"NJ","SOMERSET AP","","","TMAX",1999,2023
"USW00054789",2.34935875897575,41.1369,-75.3772,574.5,"PA","MT POCONO POCONO MOUNTAINS MUN","","","TMAX",1999,2023
"USW00054792",4.00030827835556,41.0464,-78.4111,459.9,"PA","CLEARFIELD LAWRENCE AP","","","TMAX",2000,2023
"USW00054793",5.60014395254872,41.1992,-74.6258,127.4,"NJ","SUSSEX AP","","","TMAX",2000,2023
"USW00064758",2.03003364609629,42.44,-76.2461,374.3,"NY","ITHACA 13 E","","CRN","TMAX",2004,2023
